,City,Lat,Lng,Max Temp,Humidity,Cloudiness,Wind Speed,Country,Date
0,Port Blair,11.6667,92.75,82.83200000000002,68,0,4.84,IN,1612062480
1,Lorengau,-2.0226,147.2712,82.58000000000004,82,99,5.3,PG,1612062480
2,Ushuaia,-54.8,-68.3,46.4,71,20,3.09,AR,1612062480
3,Barrow,71.2906,-156.7887,-16.59999999999995,69,90,2.06,US,1612062481
4,Ngunguru,-35.6167,174.5,73.00400000000005,55,0,4.02,NZ,1612062481
5,Chui,-33.6971,-53.4616,68.342,93,100,6.97,UY,1612062481
6,Ciudad del Carmen,18.6333,-91.8333,74.44400000000007,77,93,3.89,MX,1612062193
7,Busselton,-33.65,115.3333,87.00800000000001,43,0,2.24,AU,1612062482
8,Nouadhibou,20.931,-17.0347,66.2,63,0,7.72,MR,1612062482
9,Rikitea,-23.1203,-134.9692,79.37600000000009,72,0,5.15,PF,1612062467
10,Henties Bay,-22.116,14.2845,66.99199999999999,84,50,1.79,NA,1612062482
11,Saint Paul Harbor,57.79,-152.4072,30.2,55,1,8.23,US,1612062483
12,Kidal,18.4411,1.4078,62.150000000000006,26,2,4.14,ML,1612062483
13,Vaini,-21.2,-175.2,84.2,84,75,5.14,TO,1612062483
14,Sur,22.5667,59.5289,65.44400000000007,51,0,0.33,OM,1612062463
15,Wichita Falls,33.9137,-98.4934,57.2,35,1,3.6,US,1612062294
16,Cedartown,34.0537,-85.255,44.00600000000003,70,2,0.45,US,1612062423
17,Kargasok,59.0556,80.8572,-22.305999999999976,85,100,5.08,RU,1612062485
18,Portland,45.5234,-122.6762,46.99400000000007,87,90,4.12,US,1612061731
19,Mahébourg,-20.4081,57.7,78.80000000000001,83,20,3.09,MU,1612062486
20,Zelenoborsk,61.4669,64.0333,-2.037999999999947,93,100,1.21,RU,1612062486
21,Cape Town,-33.9258,18.4232,68.0,82,75,3.6,ZA,1612062317
22,Airai,-8.9266,125.4092,63.69800000000002,100,100,2.84,TL,1612062487
23,Enshi,30.3,109.4833,48.88399999999999,79,100,0.43,CN,1612062487
24,Avarua,-21.2078,-159.775,84.2,70,75,2.06,CK,1612062488
25,Hualmay,-11.0964,-77.6139,70.75400000000005,77,96,3.45,PE,1612062489
26,Torbay,47.6666,-52.7314,28.994000000000074,100,90,4.12,CA,1612062490
27,Jiwani,25.05,61.7417,68.54000000000002,69,0,3.08,PK,1612062490
28,Chagoda,59.164,35.3285,18.194000000000074,97,95,2.93,RU,1612062491
29,São José da Coroa Grande,-8.8978,-35.1478,77.57600000000009,83,100,3.64,BR,1612062492
30,New Norfolk,-42.7826,147.0587,73.99400000000009,38,7,1.34,AU,1612062493
31,Punta Arenas,-53.15,-70.9167,48.2,71,0,7.2,CL,1612062494
32,Umuarama,-23.7664,-53.325,70.30400000000006,96,100,5.46,BR,1612062494
33,Midsalip,8.0,123.2667,75.95600000000003,77,98,2.69,PH,1612062494
34,Gorin,51.1983,136.6669,-10.263999999999982,87,69,3.68,RU,1612062496
35,Sukhobuzimskoye,56.5,93.2728,-39.99999999999996,74,0,0.96,RU,1612062496
36,Mar del Plata,-38.0023,-57.5575,60.998000000000026,51,0,8.23,AR,1612062491
37,Marsá Maţrūḩ,31.3525,27.2453,59.0,63,0,7.72,EG,1612062497
38,Mataura,-46.1927,168.8643,73.81400000000004,35,98,1.63,NZ,1612062498
39,George Town,5.4112,100.3354,82.4,57,20,4.12,MY,1612062350
40,Tabas,33.5959,56.9244,47.55200000000008,49,0,1.75,IR,1612062499
41,Jardim,-21.4803,-56.1381,76.11800000000008,85,2,3.01,BR,1612062500
42,Bredasdorp,-34.5322,20.0403,60.998000000000026,91,0,2.93,ZA,1612062500
43,Gao,16.6362,1.637,64.88600000000008,24,35,4.84,ML,1612062501
44,Salalah,17.0151,54.0924,66.2,68,75,1.03,OM,1612062501
45,Springfield,37.2153,-93.2982,50.0,87,90,8.23,US,1612062501
46,Bethel,41.3712,-73.414,17.00600000000003,68,0,3.04,US,1612062502
47,Tuktoyaktuk,69.4541,-133.0374,-34.59999999999995,67,40,2.06,CA,1612062502
48,Vigrestad,58.5667,5.7,28.994000000000074,93,75,1.03,NO,1612062502
49,Arraial do Cabo,-22.9661,-42.0278,76.65800000000002,83,5,11.52,BR,1612062338
50,Olafsvik,64.8945,-23.7142,23.054000000000052,89,23,7.38,IS,1612062470
51,Yerbogachën,61.2767,108.0108,-31.80999999999998,82,52,2.82,RU,1612062503
52,Hasaki,35.7333,140.8333,51.998000000000026,32,20,7.72,JP,1612062503
53,Vao,-22.6667,167.4833,76.29800000000003,79,86,9.46,NC,1612062503
54,Port Macquarie,-31.4333,152.9167,82.00400000000005,71,16,0.45,AU,1612062320
55,Skibbereen,51.55,-9.2667,41.0,93,75,6.69,IE,1612062504
56,Balkhash,46.844,74.9804,15.8,73,0,8.0,KZ,1612062504
57,Banamba,13.55,-7.45,65.55200000000008,24,4,4.1,ML,1612062504
58,Kruisfontein,-34.0033,24.7314,57.992,92,0,2.05,ZA,1612062504
59,Guerrero Negro,27.9769,-114.0611,59.54000000000002,71,64,5.49,MX,1612062505
60,Praia,14.9215,-23.5087,73.4,53,0,7.72,CV,1612062505
61,Yellowknife,62.456,-114.3525,-16.00599999999998,76,1,2.06,CA,1612062505
62,Laguna,38.421,-121.4238,53.99600000000005,76,1,2.79,US,1612062505
63,Bhawana,31.5692,72.649,50.288000000000046,41,0,1.87,PK,1612062506
64,San Patricio,28.017,-97.5169,68.0,94,1,5.14,US,1612062506
65,Ulverstone,-41.15,146.1667,69.99800000000002,67,92,2.24,AU,1612062506
66,Hithadhoo,-0.6,73.0833,81.78800000000004,79,10,6.25,MV,1612062506
67,Göksun,38.021,36.4973,33.8,100,75,7.2,TR,1612062506
68,Buchanan,5.8808,-10.0467,78.24199999999999,86,10,2.28,LR,1612062507
69,Khatanga,71.9667,102.5,-47.37999999999994,78,40,0.6,RU,1612062507
70,Mīnāb,27.1467,57.0801,61.82600000000009,85,4,1.03,IR,1612062507
71,Hilo,19.7297,-155.09,78.80000000000001,57,40,3.09,US,1612062507
72,Diapaga,12.0708,1.7889,69.87200000000004,21,16,3.62,BF,1612062492
73,Petropavlovsk-Kamchatskiy,53.0452,158.6483,30.2,47,100,9.0,RU,1612062508
74,Albany,42.6001,-73.9662,12.991999999999994,57,8,1.79,US,1612062009
75,Nizwá,22.9333,57.5333,56.24600000000005,59,0,1.08,OM,1612062508
76,Esperance,-33.8667,121.9,78.80000000000001,41,0,3.09,AU,1612062509
77,Hermanus,-34.4187,19.2345,60.998000000000026,91,1,3.95,ZA,1612062407
78,Kaeng Khoi,14.5862,100.9976,89.00600000000003,36,0,2.47,TH,1612062509
79,Bluff,-46.6,168.3333,58.13600000000007,73,99,5.11,NZ,1612062509
80,Palana,59.1167,159.9667,-5.97999999999994,91,68,8.03,RU,1612062510
81,Nikolskoye,59.7035,30.7861,24.8,93,75,2.0,RU,1612062510
82,Sinnamary,5.3833,-52.95,77.63000000000005,85,100,6.5,GF,1612062510
83,Gravdal,68.1214,13.5031,25.988000000000046,89,59,1.98,NO,1612062510
84,Puerto Ayora,-0.7393,-90.3518,78.00800000000001,89,48,3.13,EC,1612062511
85,Nieuw Amsterdam,5.8833,-55.0833,77.0,94,40,1.03,SR,1612062511
86,Arrondissement de Millau,44.0833,2.9167,48.992,93,90,5.14,FR,1612062511
87,Srednekolymsk,67.45,153.6833,-32.61999999999996,84,100,2.23,RU,1612062462
88,Muros,42.7762,-9.0603,55.004000000000055,91,100,2.68,ES,1612062511
89,Formosa,-26.1775,-58.1781,75.2,88,75,3.09,AR,1612062512
90,Angoche,-16.2325,39.9086,77.14400000000008,87,100,3.22,MZ,1612062512
91,Russell,32.3502,-85.1999,48.2,81,20,2.55,US,1612062512
92,Yarmouth,41.7057,-70.2286,21.002000000000077,49,75,2.06,US,1612062248
93,Tasiilaq,65.6145,-37.6368,17.6,45,40,2.06,GL,1612062512
94,Cherskiy,68.75,161.3,-34.68999999999997,83,0,0.96,RU,1612062513
95,Adrar,20.5022,-10.0711,63.986000000000075,26,62,3.36,MR,1612062513
96,Saint-Philippe,-21.3585,55.7679,78.99800000000002,65,0,2.57,RE,1612062513
97,Kapaa,22.0752,-159.319,75.2,78,1,6.69,US,1612062513
98,Cidreira,-30.1811,-50.2056,75.61400000000003,89,98,4.52,BR,1612062487
99,Alofi,-19.0595,-169.9187,80.6,78,90,4.63,NU,1612062514
100,Pyn U Lwin,22.0333,96.4667,64.4,77,64,1.03,MM,1612062514
101,Fairbanks,64.8378,-147.7164,-2.9919999999999476,77,90,0.28,US,1612062514
102,Auki,-8.7676,160.7034,82.92200000000004,78,100,6.35,SB,1612062514
103,Chara,56.9064,118.2631,-25.41999999999996,81,100,0.81,RU,1612062515
104,La Libertad,-2.2333,-80.9,77.0,88,0,2.06,EC,1612062515
105,Korla,41.7597,86.1469,23.108000000000004,81,0,2.24,CN,1612062515
106,Sørland,67.667,12.6934,30.704000000000054,89,41,3.37,NO,1612062516
107,Fortuna,40.5982,-124.1573,53.00600000000003,81,90,10.29,US,1612062516
108,Antalaha,-14.9003,50.2788,75.56000000000009,87,0,2.0,MG,1612062516
109,Khonsa,27.0167,95.5667,59.39600000000005,57,0,1.1,IN,1612062516
110,Upernavik,72.7868,-56.1549,-9.273999999999965,84,79,2.3,GL,1612062517
111,Talnakh,69.4865,88.3972,-31.233999999999945,71,0,3.19,RU,1612062517
112,Bambous Virieux,-20.3428,57.7575,80.00600000000003,83,20,3.09,MU,1612062517
113,Chokurdakh,70.6333,147.9167,-29.811999999999955,85,0,3.83,RU,1612062517
114,Ixtapa,20.7,-105.2,71.00600000000003,88,1,1.03,MX,1612062517
115,Castro,-24.7911,-50.0119,65.3180000000001,97,100,2.36,BR,1612062518
116,Iqaluit,63.7506,-68.5145,-7.005999999999979,71,1,7.2,CA,1612062518
117,Bathsheba,13.2167,-59.5167,78.80000000000001,73,40,9.77,BB,1612062443
118,San Sebastian,43.3128,-1.975,55.004000000000055,82,90,11.32,ES,1612062518
119,Leningradskiy,69.3833,178.4167,-27.18399999999994,82,0,2.06,RU,1612062518
120,Belmonte,-15.8631,-38.8828,77.0,78,20,2.06,BR,1612062519
121,Nipawin,53.3668,-104.0009,12.2,92,90,1.03,CA,1612062519
122,Kjøpsvik,68.097,16.3742,19.004000000000055,85,20,1.03,NO,1612062519
123,Vardø,70.3705,31.1107,25.628000000000064,95,100,8.33,NO,1612062519
124,Yārāda,17.65,83.2667,75.2,88,40,1.54,IN,1612062519
125,Lebu,-37.6167,-73.65,55.83200000000002,87,7,5.44,CL,1612062520
126,General Roca,-39.0333,-67.5833,64.4,63,40,1.03,AR,1612062521
127,Faanui,-16.4833,-151.75,82.09400000000008,68,68,3.26,PF,1612062521
128,Zeya,53.75,127.2667,-23.02599999999994,81,96,1.04,RU,1612062521
129,Lompoc,34.6391,-120.4579,48.2,87,1,1.45,US,1612062521
130,Devils Lake,48.1128,-98.8651,21.2,100,90,2.57,US,1612062521
131,Port Elizabeth,-33.918,25.5701,60.8,88,0,1.54,ZA,1612062493
132,Aykhal,66.0,111.5,-32.29599999999995,81,100,5.27,RU,1612062522
133,Vanimo,-2.6741,141.3028,84.86600000000001,70,100,4.42,PG,1612062522
134,Dikson,73.5069,80.5464,-33.681999999999974,80,0,2.55,RU,1612062522
135,San Cristobal,7.7669,-72.225,64.58000000000004,70,96,0.62,VE,1612062523
136,Porto Belo,-27.1578,-48.5531,80.00600000000003,94,0,0.51,BR,1612062523
137,Batemans Bay,-35.7167,150.1833,69.99800000000002,75,98,0.89,AU,1612062523
138,Capitão Poço,-1.7464,-47.0594,72.86000000000008,97,100,1.58,BR,1612062523
139,Pareora,-44.4871,171.2132,68.0,66,1,2.24,NZ,1612062524
140,Miajadas,39.1513,-5.9084,48.992,89,63,4.92,ES,1612062524
141,Datong,40.0936,113.2914,31.874000000000013,71,0,7.16,CN,1612062524
142,Coquimbo,-29.9533,-71.3436,64.4,94,90,1.2,CL,1612062524
143,Mbandaka,0.0487,18.2603,71.63600000000008,97,94,1.83,CD,1612062525
144,Turan,16.0678,108.2208,75.2,78,40,1.54,VN,1612062419
145,Isfara,40.1265,70.6253,36.37400000000001,69,100,1.17,TJ,1612062525
146,Pevek,69.7008,170.3133,-33.195999999999955,84,4,1.36,RU,1612062526
147,Vila Franca do Campo,37.7167,-25.4333,62.99600000000005,94,75,5.66,PT,1612062526
148,São João da Barra,-21.6403,-41.0511,77.12600000000009,81,2,9.28,BR,1612062526
149,Baikunthpur,23.25,82.55,56.102000000000075,35,0,0.39,IN,1612062526
150,Bubaque,11.2833,-15.8333,78.78200000000001,63,71,5.33,GW,1612062526
151,Hobart,-42.8794,147.3294,73.99400000000009,42,40,5.66,AU,1612062367
152,Guider,9.9342,13.9486,69.78200000000001,23,0,2.62,CM,1612062527
153,Pacific Grove,36.6177,-121.9166,53.00600000000003,76,20,1.47,US,1612062233
154,Klaksvík,62.2266,-6.589,32.0,69,75,8.23,FO,1612062411
155,Rybnaya Sloboda,55.4613,50.1409,21.2,93,0,5.0,RU,1612062528
156,Biłgoraj,50.5411,22.722,24.8,86,90,3.09,PL,1612062434
157,Bemidji,47.4736,-94.8803,26.99600000000005,93,90,1.68,US,1612062305
158,Jamestown,42.097,-79.2353,19.004000000000055,79,90,3.6,US,1612062410
159,Solnechnyy,50.7214,136.6319,-7.149999999999949,85,54,2.46,RU,1612062528
160,Yangi Marg`ilon,40.4272,71.7189,32.0,55,100,4.12,UZ,1612062529
161,Narsaq,60.9167,-46.05,39.2,30,75,11.83,GL,1612062529
162,Marrakesh,31.6315,-8.0083,51.8,87,40,3.09,MA,1612062529
163,Nizhniy Kuranakh,58.8353,125.4869,-30.33399999999994,80,94,0.34,RU,1612062529
164,Krasnyy,54.5678,31.4333,17.69000000000002,98,100,2.59,RU,1612062529
165,Cairns,-16.9167,145.7667,91.99400000000009,58,40,6.17,AU,1612062530
166,Ponta do Sol,32.6667,-17.1,57.00200000000008,89,15,0.89,PT,1612062530
167,Zhezkazgan,47.8043,67.7144,15.29600000000005,95,91,3.13,KZ,1612062530
168,Chaman,30.9236,66.4512,50.233999999999995,37,12,2.76,PK,1612062492
169,Saskylakh,71.9167,114.0833,-33.23199999999997,83,100,4.77,RU,1612062531
170,Yantzaza,-3.8278,-78.7594,66.70400000000006,84,66,0.43,EC,1612062531
171,Kloulklubed,7.0419,134.2556,86.0,66,75,5.66,PW,1612062531
172,Itupiranga,-5.1347,-49.3267,73.45400000000006,94,100,1.63,BR,1612062532
173,Kavieng,-2.5744,150.7967,83.46200000000006,73,99,6.26,PG,1612062532
174,Wuwei,37.9281,102.6414,32.233999999999995,61,0,2.24,CN,1612062532
175,Maniitsoq,65.4167,-52.9,11.660000000000082,75,0,2.7,GL,1612062532
176,East London,-33.0153,27.9116,70.34000000000003,84,71,1.84,ZA,1612062502
177,Ostrovnoy,68.0531,39.5131,15.656000000000027,95,100,3.41,RU,1612062533
178,Callaway,30.153,-85.5699,57.992,88,90,1.54,US,1612062533
179,Biloela,-24.4167,150.5,91.36400000000003,28,44,5.93,AU,1612062534
180,Codrington,-38.2667,141.9667,66.18200000000002,57,0,4.95,AU,1612062534
181,Hakui,36.8833,136.7833,41.0,87,75,1.03,JP,1612062534
182,Saint George,37.1041,-113.5841,44.00600000000003,70,1,1.54,US,1612062535
183,Tiksi,71.6872,128.8694,-26.98599999999997,86,100,2.07,RU,1612062535
184,Kungurtug,50.5994,97.5228,-2.7399999999999736,87,100,0.98,RU,1612062535
185,Carnarvon,-24.8667,113.6333,93.2,52,2,4.63,AU,1612062332
186,Olavarría,-36.8927,-60.3225,57.00200000000008,69,37,2.24,AR,1612062535
187,Sahuaripa,29.05,-109.2333,58.98200000000001,40,0,0.35,MX,1612062536
188,Norman Wells,65.282,-126.8329,-27.39999999999995,75,75,1.03,CA,1612062536
189,Port Hardy,50.6996,-127.4199,44.6,87,90,7.72,CA,1612062537
190,Waingapu,-9.6567,120.2641,84.434,71,100,8.38,ID,1612062538
191,Naze,28.3667,129.4833,62.6,51,75,3.09,JP,1612062309
192,Tuatapere,-46.1333,167.6833,66.47000000000006,49,100,1.27,NZ,1612062539
193,Kaabong,3.4836,34.1492,66.92000000000007,38,42,5.63,UG,1612062539
194,Thompson,55.7435,-97.8558,14.0,92,90,1.03,CA,1612062242
195,Bud,39.447,-86.1758,33.008,97,100,7.4,US,1612062539
196,Rāvar,31.2656,56.8055,48.74000000000002,50,0,2.79,IR,1612062539
197,Tocopilla,-22.092,-70.1979,67.04600000000005,60,1,3.34,CL,1612062540
198,Baley,51.6,116.6333,-18.813999999999986,86,32,1.64,RU,1612062540
199,Imbituba,-28.24,-48.6703,78.80000000000001,89,0,3.6,BR,1612062455
200,Saldanha,-33.0117,17.9442,63.37400000000001,92,0,1.27,ZA,1612062520
201,Butaritari,3.0707,172.7902,81.19400000000007,79,56,8.15,KI,1612062540
202,West Bay,19.3667,-81.4167,77.0,73,20,4.63,KY,1612062541
203,Pangody,65.85,74.4859,-18.777999999999963,85,100,8.29,RU,1612062541
204,Surskoye,54.4821,46.7214,31.712000000000057,99,100,5.87,RU,1612062541
205,Isangel,-19.55,169.2667,80.6,83,90,2.57,VU,1612062542
206,Neyshabur,36.2133,58.7958,42.69199999999999,75,69,0.2,IR,1612062542
207,Hay River,60.8156,-115.7999,-14.799999999999947,76,45,1.03,CA,1612062542
208,Shahr-e Kord,32.3256,50.8644,28.004000000000055,85,0,2.51,IR,1612062542
209,North Bend,43.4065,-124.2243,48.2,100,90,3.27,US,1612062543
210,College,64.8569,-147.8028,-3.9999999999999503,77,90,0.27,US,1612062543
211,Anadyr,64.75,177.4833,-0.39999999999994884,78,90,13.0,RU,1612062543
212,The Valley,18.217,-63.0578,77.0,83,40,4.63,AI,1612062543
213,Manakara,-22.1333,48.0167,75.59600000000006,89,1,1.92,MG,1612062543
214,Moyobamba,-6.05,-76.9667,65.78600000000007,90,42,0.19,PE,1612062544
215,Bengkulu,-3.8004,102.2655,75.14600000000004,90,100,1.36,ID,1612062544
216,Port Alfred,-33.5906,26.891,62.00600000000003,93,4,1.41,ZA,1612062544
217,Harrisonburg,38.4496,-78.8689,32.0,69,90,0.98,US,1612062440
218,Tvøroyri,61.5556,-6.8111,32.0,69,75,8.23,FO,1612062545
219,Lüderitz,-26.6481,15.1594,63.77000000000007,67,0,7.61,NA,1612062545
220,Gushikawa,26.3544,127.8686,68.0,52,75,5.66,JP,1612062545
221,Longyearbyen,78.2186,15.6401,-5.799999999999947,59,20,8.75,SJ,1612062545
222,Ahipara,-35.1667,173.1667,70.07000000000006,55,8,2.01,NZ,1612062546
223,Aloja,57.7669,24.8825,28.004000000000055,91,100,2.24,LV,1612062546
224,Katsuura,35.1333,140.3,53.00600000000003,37,20,7.2,JP,1612062546
225,Kletnya,53.3897,33.2171,23.0,93,90,3.0,RU,1612062546
226,Jutaí,-5.1833,-68.9,74.01200000000006,96,100,0.37,BR,1612062546
227,Mount Gambier,-37.8333,140.7667,71.6,46,40,3.09,AU,1612062547
228,Puerto Quijarro,-17.7833,-57.7667,79.77200000000005,71,92,1.95,BO,1612062547
229,Provideniya,64.3833,-173.3,-9.45399999999995,83,100,6.86,RU,1612062547
230,Faya,18.3851,42.4509,51.8,71,0,1.09,SA,1612062466
231,Ouadda,8.0777,22.4007,69.13399999999999,23,71,3.11,CF,1612062548
232,Polovinnoye,54.7914,65.9864,7.988000000000046,95,35,1.68,RU,1612062548
233,Atar,20.5169,-13.0499,64.67000000000007,25,65,3.55,MR,1612062548
234,Mulchén,-37.7167,-72.2333,57.542,95,32,1.05,CL,1612062548
235,Geraldton,-28.7667,114.6,102.2,16,0,3.09,AU,1612062548
236,Yatou,37.15,122.3833,47.12000000000006,68,59,6.47,CN,1612062311
237,Ilulissat,69.2167,-51.1,8.599999999999998,66,90,1.54,GL,1612062549
238,Brigantine,39.4101,-74.3646,28.994000000000074,63,1,3.87,US,1612062549
239,Hofn,64.2539,-15.2082,24.062000000000058,83,0,6.48,IS,1612062549
240,Pochutla,15.7432,-96.4661,77.0,83,3,0.45,MX,1612062550
241,Ribeira Grande,38.5167,-28.7,62.924000000000014,93,99,8.76,PT,1612062550
242,Baykalovo,57.3981,63.7684,5.036000000000069,95,67,1.36,RU,1612062550
243,Gizo Government Station,-8.103,156.8419,86.52200000000005,69,60,9.32,SB,1612062550
244,Srandakan,-7.9386,110.2506,86.59400000000008,62,100,0.5,ID,1612062550
245,Rocha,-34.4833,-54.3333,65.60600000000002,89,100,7.1,UY,1612062551
246,Myaundzha,63.0494,147.1858,-21.765999999999956,80,96,2.14,RU,1612062551
247,Tra Vinh,9.9347,106.3453,84.38000000000005,52,62,2.83,VN,1612062551
248,Vershino-Darasunskiy,52.35,115.5167,-19.101999999999975,84,29,1.34,RU,1612062551
249,Batagay-Alyta,67.8006,130.4114,-33.41199999999996,80,89,1.0,RU,1612062551
250,Malbork,54.0359,19.0266,26.99600000000005,83,16,3.58,PL,1612062552
251,San Jose,37.3394,-121.895,53.99600000000005,58,20,1.4,US,1612061732
252,Hambantota,6.1241,81.1185,77.0,94,20,3.09,LK,1612062553
253,Neuquén,-38.9516,-68.0591,64.4,63,40,1.03,AR,1612062553
254,Husavik,66.0449,-17.3389,14.0,79,90,2.06,IS,1612062553
255,‘Āhuimanu,21.4447,-157.8378,78.80000000000001,69,40,6.17,US,1612062553
256,Yulara,-25.2406,130.9889,96.8,19,55,8.23,AU,1612062553
257,Palmer,42.1584,-72.3287,10.004000000000051,78,1,1.34,US,1612062554
258,Boguchany,58.3814,97.4531,-37.98399999999994,77,18,0.42,RU,1612062554
259,Mumbwa,-14.9783,27.0619,65.60600000000002,95,100,1.26,ZM,1612062554
260,Qandala,11.472,49.8728,69.63800000000005,69,24,1.33,SO,1612062554
261,Leh,34.1667,77.5833,3.2900000000000205,57,31,0.52,IN,1612062555
262,Fukuechō,32.6881,128.8419,55.400000000000006,58,40,2.06,JP,1612062467
263,Puntarenas,9.9763,-84.8384,69.80000000000001,73,20,8.75,CR,1612062555
264,Rio Verde de Mato Grosso,-18.9181,-54.8442,74.49800000000002,79,66,2.19,BR,1612062555
265,Tezu,27.9167,96.1667,68.09000000000003,26,24,0.69,IN,1612062556
266,Stornoway,58.2093,-6.3865,33.8,69,100,2.06,GB,1612062556
267,Praia da Vitória,38.7333,-27.0667,64.4,88,75,6.44,PT,1612062556
268,Xunchang,28.4543,104.715,48.794000000000075,80,100,0.22,CN,1612062486
269,San Juan,-31.5375,-68.5364,73.70600000000003,40,56,3.82,AR,1612062557
270,Sitka,57.0531,-135.33,39.2,56,20,2.06,US,1612062557
271,São Gabriel da Cachoeira,-0.1303,-67.0892,75.38000000000005,92,67,0.32,BR,1612062557
272,Coahuayana Viejo,18.7333,-103.6833,73.45400000000006,89,0,0.44,MX,1612062557
273,Bereda,43.2686,-7.5406,48.992,99,100,5.36,ES,1612062558
274,Pisco,-13.7,-76.2167,69.00800000000001,77,0,5.14,PE,1612062558
275,Clyde River,70.4692,-68.5914,-3.9999999999999503,92,90,2.57,CA,1612062558
276,Volnovakha,47.601,37.4967,35.00600000000003,53,100,0.89,UA,1612062558
277,Isfahan,32.6572,51.6776,34.070000000000064,82,0,1.49,IR,1612062317
278,San Quintín,30.4833,-115.95,56.983999999999995,77,0,2.57,MX,1612062559
279,Barcelos,41.5388,-8.6151,53.6,100,75,1.54,PT,1612062559
280,Tuscaloosa,33.2098,-87.5692,60.8,55,90,7.72,US,1612062553
281,Victor Harbor,-35.5667,138.6167,69.99800000000002,62,0,0.89,AU,1612062402
282,Estelle,29.8458,-90.1067,66.99199999999999,94,75,4.12,US,1612062560
283,Winfield,37.2398,-96.9956,39.2,81,90,10.29,US,1612062560
284,Lebedinyy,58.5167,125.5167,-34.02399999999996,79,92,0.9,RU,1612062561
285,Dalhousie,32.5333,75.9833,37.13000000000004,61,0,2.73,IN,1612062561
286,Lamu,-2.2717,40.902,75.29000000000002,88,0,4.85,KE,1612062561
287,São Filipe,14.8961,-24.4956,74.39000000000001,60,100,4.95,CV,1612062561
288,Çorum Province,40.5,34.75,33.998000000000026,100,100,1.0,TR,1612062561
289,Atuona,-9.8,-139.0333,79.07000000000006,76,84,7.68,PF,1612062456
290,Kovdor,67.5662,30.4758,6.67400000000001,95,100,1.11,RU,1612062562
291,Biak,-0.9131,122.8766,82.54400000000007,64,100,0.55,ID,1612062562
292,Port-Cartier,50.0334,-66.8654,19.4,68,37,4.63,CA,1612062562
293,Kazachinskoye,57.6953,93.2761,-36.84999999999995,79,0,1.35,RU,1612062563
294,Sechura,-5.5569,-80.8222,77.64800000000002,61,29,6.88,PE,1612062563
295,Våler,60.6785,11.8331,12.002000000000077,92,90,1.58,NO,1612062563
296,Arrondissement de Mende,44.6667,3.5,33.854000000000056,100,100,2.23,FR,1612062563
297,Yumen,40.2833,97.2,28.291999999999994,66,0,12.37,CN,1612062564
298,Birjand,32.8663,59.2211,42.29600000000005,70,0,1.22,IR,1612062564
299,Nampula,-15.1165,39.2666,69.20600000000003,95,100,1.31,MZ,1612062564
300,Maloarkhangel'sk,52.4002,36.5033,34.66400000000003,97,100,5.98,RU,1612062564
301,Chitipa,-9.7024,33.2697,61.682000000000016,93,100,0.85,MW,1612062565
302,Ust'-Uda,54.1742,103.0304,-30.18999999999997,80,35,2.34,RU,1612062565
303,Qaanaaq,77.484,-69.3632,-5.043999999999976,77,99,1.1,GL,1612062559
304,Uyemskiy,64.4743,40.8524,23.0,93,90,2.0,RU,1612062565
305,Nome,64.5011,-165.4064,-14.799999999999947,84,1,1.64,US,1612062566
306,Margate,51.3813,1.3862,39.992,60,5,1.34,GB,1612062566
307,Camacha,33.0833,-16.3333,57.2,88,0,2.06,PT,1612062567
308,Zarubino,42.63,131.0922,10.472000000000037,87,82,2.41,RU,1612062567
309,Mokrous,51.2333,47.5167,21.2,95,67,6.09,RU,1612062567
310,Vung Tau,10.346,107.0843,78.7100000000001,63,100,2.07,VN,1612062567
311,Pemba,-12.974,40.5178,77.0,94,40,3.09,MZ,1612062567
312,Lagoa,39.05,-27.9833,61.71800000000009,96,98,10.35,PT,1612062568
313,Laas,46.6166,10.7002,35.99600000000005,100,90,1.54,IT,1612062568
314,Grand Gaube,-20.0064,57.6608,80.00600000000003,80,1,0.89,MU,1612062568
315,Krasnosel'kup,65.7,82.4667,-24.753999999999955,83,100,6.76,RU,1612062568
316,Zhizdra,53.746,34.7395,23.0,93,90,3.0,RU,1612062569
317,Morón,-34.6534,-58.6198,62.99600000000005,90,90,2.24,AR,1612062339
318,Cravo Norte,6.3017,-70.2041,81.14000000000001,51,43,3.34,CO,1612062570
319,Beyla,8.6833,-8.6333,66.93800000000005,44,0,0.84,GN,1612062571
320,Wellingborough,52.3027,-0.6945,33.008,76,70,1.79,GB,1612062571
321,Huarmey,-10.0681,-78.1522,71.20400000000006,77,67,2.91,PE,1612062571
322,Khasan,42.4308,130.6434,13.082000000000015,87,94,1.98,RU,1612062571
323,La Ronge,55.1001,-105.2842,12.2,79,2,0.82,CA,1612062571
324,Morehead,37.2711,-87.1764,41.0,81,90,3.6,US,1612062572
325,Thinadhoo,0.5333,72.9333,81.86000000000008,77,12,5.55,MV,1612062572
326,Souillac,-20.5167,57.5167,78.80000000000001,83,20,3.09,MU,1612062572
327,Ajdabiya,30.7554,20.2263,59.37800000000007,54,0,4.09,LY,1612062572
328,Działdowo,53.2396,20.17,21.2,86,75,3.6,PL,1612062572
329,Seymchan,62.8833,152.4333,-27.38199999999997,78,100,5.19,RU,1612062573
330,Tumaco,1.7986,-78.8156,77.46800000000009,89,17,2.19,CO,1612062573
331,Saint-Pierre,-21.3393,55.4781,78.99800000000002,65,0,2.57,RE,1612062573
332,Kholtoson,50.2981,103.3097,-12.04599999999995,82,100,1.49,RU,1612062573
333,Bambey,14.6955,-16.4493,69.80000000000001,64,0,5.14,SN,1612062573
334,Pundaguitan,6.3711,126.1689,81.14000000000001,75,82,5.75,PH,1612062574
335,Banjar,-8.19,114.9675,82.4,83,40,5.14,ID,1612062470
336,Magrath,49.4167,-112.8686,33.8,64,0,7.2,CA,1612062574
337,Inta,66.0317,60.1659,-1.4979999999999762,88,100,3.99,RU,1612062574
338,Kalang,5.9197,121.3631,81.86000000000008,73,100,4.93,PH,1612062574
339,Dicabisagan,17.0818,122.4157,72.0680000000001,80,100,5.71,PH,1612062575
340,Haines Junction,60.7522,-137.5108,-11.199999999999953,77,97,0.27,CA,1612062575
341,Alice Springs,-23.7,133.8833,98.00600000000003,18,52,5.66,AU,1612062323
342,Richards Bay,-28.783,32.0377,74.24600000000005,94,85,1.95,ZA,1612062575
343,Ancud,-41.8697,-73.8203,51.998000000000026,87,0,1.29,CL,1612062526
344,Scottsbluff,41.8666,-103.6672,37.99400000000007,75,1,4.63,US,1612062576
345,Caravelas,-17.7125,-39.2481,75.02000000000007,87,0,2.15,BR,1612062576
346,Soledade,-28.8183,-52.5103,66.092,100,67,2.27,BR,1612062576
347,Manta,-0.95,-80.7333,77.0,88,90,1.54,EC,1612062576
348,Constitución,-35.3333,-72.4167,59.0,92,21,3.66,CL,1612062576
349,Dingle,10.9995,122.6711,80.78000000000004,76,90,7.76,PH,1612062577
350,Zyryanka,65.75,150.85,-26.823999999999963,84,100,7.75,RU,1612062577
351,Mana,5.6592,-53.7767,77.50400000000005,86,100,6.16,GF,1612062577
352,Tautira,-17.7333,-149.15,77.0,83,75,8.75,PF,1612062412
353,Quito,-0.2299,-78.5249,51.8,87,40,2.57,EC,1612062578
354,Calamar,10.2511,-74.9146,77.0,83,0,4.12,CO,1612062578
355,Province of Mantua,45.1667,10.7833,39.992,100,90,2.57,IT,1612062578
356,Lianzhou,24.7811,112.3825,71.25800000000001,39,0,2.07,CN,1612062578
357,Bereket,39.2446,55.5154,44.81600000000001,71,33,3.74,TM,1612062578
358,Sinjār,36.3209,41.8754,42.062000000000054,75,100,5.69,IQ,1612062579
359,Luanda,-8.8368,13.2343,78.80000000000001,83,75,2.57,AO,1612062203
360,Gwadar,25.1216,62.3254,66.34400000000008,72,0,2.99,PK,1612062579
361,Mataram,-8.5833,116.1167,86.0,70,75,4.12,ID,1612062579
362,Ust-Nera,64.5667,143.2,-24.753999999999955,76,89,3.7,RU,1612062580
363,Suriāpet,17.15,79.6167,72.30200000000008,77,15,2.12,IN,1612062580
364,Sisimiut,66.9395,-53.6735,5.216000000000008,90,66,3.45,GL,1612062580
365,Myrtle Beach,33.6891,-78.8867,46.99400000000007,61,1,2.57,US,1612062580
366,Bandarbeyla,9.4942,50.8122,73.4,71,96,6.76,SO,1612062580
367,Lugovoy,42.9472,72.7644,40.11800000000009,60,100,2.11,KZ,1612062581
368,Hamilton,39.1834,-84.5333,33.008,93,100,3.72,US,1612062581
369,Saint Anthony,45.0205,-93.218,30.991999999999997,86,90,3.6,US,1612062581
370,Glasgow,55.8652,-4.2576,28.994000000000074,100,100,0.51,GB,1612062426
371,Sobolevo,54.4299,31.8996,17.636000000000067,97,100,2.4,RU,1612062581
372,Garoowe,8.4054,48.4845,60.602000000000075,91,0,4.06,SO,1612062582
373,Puerto del Rosario,28.5004,-13.8627,64.4,88,90,9.26,ES,1612062582
374,Chalmette,29.9427,-89.9634,68.0,77,90,3.6,US,1612062582
375,Hong Kong,22.2855,114.1577,71.99600000000005,56,0,0.89,HK,1612062548
376,Vostok,46.4856,135.8833,-7.509999999999984,84,14,2.47,RU,1612062583
377,Deoraniān,28.6333,79.4833,49.78399999999999,49,0,1.63,IN,1612062583
378,Salamiyah,35.0113,37.0532,46.18399999999999,90,100,3.3,SY,1612062442
379,Kathmandu,27.7167,85.3167,44.6,76,20,1.03,NP,1612062182
380,Longfeng,46.55,125.1167,-5.9079999999999515,88,100,4.0,CN,1612062583
381,Dehlorān,32.6941,47.2679,47.354000000000056,54,0,0.53,IR,1612062584
382,Kjøllefjord,70.9457,27.3465,24.92600000000009,96,100,7.83,NO,1612062584
383,Ligayan,4.6533,119.4706,80.29400000000007,79,100,5.41,PH,1612062585
384,Poum,-20.2333,164.0167,80.11400000000003,67,1,3.01,NC,1612062585
385,Matara,5.9485,80.5353,81.30200000000008,73,52,1.49,LK,1612062585
386,Santa Vitória do Palmar,-33.5189,-53.3681,68.63000000000005,92,100,7.26,BR,1612062286
387,Mindelo,16.8901,-24.9804,71.6,73,75,8.23,CV,1612062586
388,Fort Nelson,58.8053,-122.7002,-11.199999999999953,77,40,1.54,CA,1612062586
389,Kholm,59.2667,32.85,21.632000000000016,98,98,2.23,RU,1612062586
390,Yaan,7.3833,8.5667,70.17800000000007,41,0,2.03,NG,1612062586
391,Melton,-37.6833,144.5833,71.99600000000005,57,39,1.34,AU,1612062537
392,Hadejia,12.4498,10.0444,63.87800000000007,27,0,3.93,NG,1612062587
393,Puerto Escondido,15.85,-97.0667,76.53200000000001,63,3,1.36,MX,1612062587
394,Jalu,29.0331,21.5482,57.812000000000054,46,0,4.78,LY,1612062440
395,Alakurtti,66.9672,30.3491,10.994000000000074,89,100,0.55,RU,1612062588
396,Pedernales,18.0384,-71.744,75.308,66,16,1.92,DO,1612062588
397,Warangal,18.0,79.5833,71.79800000000003,76,13,1.93,IN,1612062588
398,Urengoy,65.9667,78.3667,-21.297999999999973,85,100,7.53,RU,1612062588
399,Kununurra,-15.7667,128.7333,87.80000000000001,74,40,2.57,AU,1612062588
400,Chute-aux-Outardes,49.1168,-68.399,3.1999999999999993,72,1,1.54,CA,1612062589
401,Novy Urengoy,66.0833,76.6333,-20.28999999999997,85,100,8.28,RU,1612062589
402,Langsa,4.4683,97.9683,84.92000000000007,64,99,0.95,ID,1612062589
403,Horta,38.5333,-28.6333,62.20400000000005,94,97,8.73,PT,1612062590
404,Simao,22.7886,100.9748,56.73200000000001,92,96,1.49,CN,1612062590
405,Pizarro,4.9533,-77.366,77.342,87,16,1.46,CO,1612062590
406,Gīdam,18.9833,81.4,70.66400000000004,34,98,1.37,IN,1612062590
407,Labuhan,-6.8844,112.2051,83.39000000000001,76,84,3.74,ID,1612062590
408,Bonthe,7.5264,-12.505,76.80200000000008,87,40,1.32,SL,1612062591
409,Healdsburg,38.6105,-122.8692,48.992,61,1,1.54,US,1612062591
410,Pontes e Lacerda,-15.2261,-59.3353,73.59800000000003,92,88,1.4,BR,1612062504
411,El Seibo,18.7641,-69.0375,66.2,100,20,5.54,DO,1612062591
412,Beringovskiy,63.05,179.3167,6.062000000000058,94,100,13.52,RU,1612062592
413,Arrondissement de Lannion,48.75,-3.4167,46.4,100,90,3.09,FR,1612062592
414,La Rioja,42.25,-2.5,37.99400000000007,91,55,1.79,ES,1612062331
415,Awjilah,29.1081,21.2869,57.95600000000003,46,0,5.0,LY,1612062592
416,Kaitangata,-46.2817,169.8464,62.00600000000003,75,100,3.58,NZ,1612062593
417,Boissevain,49.2306,-100.0559,21.2,100,90,2.57,CA,1612062593
418,Amarante,-6.2411,-42.8547,74.19200000000001,86,100,0.46,BR,1612062593
419,Wonthaggi,-38.6044,145.5913,78.00800000000001,63,36,3.81,AU,1612062479
420,Westport,41.1415,-73.3579,24.008000000000003,49,1,2.57,US,1612062502
421,Asău,46.4333,26.4,32.0,80,20,8.23,RO,1612062594
422,Comodoro Rivadavia,-45.8667,-67.5,51.8,66,0,1.03,AR,1612062594
423,Rawson,-43.3002,-65.1023,60.78200000000002,59,41,5.58,AR,1612062594
424,Monrovia,6.3005,-10.7969,78.9260000000001,86,4,2.85,LR,1612062594
425,Basco,20.4487,121.9702,70.32200000000003,67,90,11.47,PH,1612062594
426,Tongliao,43.6125,122.2653,8.582000000000015,92,99,2.88,CN,1612062595
427,Songjianghe,42.1859,127.479,23.45,86,100,3.52,CN,1612062595
428,Itarema,-2.9248,-39.9167,78.60200000000009,84,100,4.63,BR,1612062595
429,Pahrump,36.2083,-115.9839,44.00600000000003,66,0,0.89,US,1612062558
430,Marawi,7.9986,124.2928,80.99600000000005,83,70,4.47,PH,1612062595
431,Carora,10.1755,-70.0827,71.36600000000001,79,33,3.41,VE,1612062596
432,Jelgava,56.65,23.7128,26.6,80,0,2.06,LV,1612062561
433,Kamenka,51.3223,42.7678,33.998000000000026,95,100,2.24,RU,1612062596
434,Moche,-8.1711,-79.0092,68.0,88,90,4.63,PE,1612062596
435,Mangai,-4.05,19.5333,70.08800000000005,98,100,0.13,CD,1612062596
436,Padang,-0.9492,100.3543,82.77800000000008,66,69,1.59,ID,1612062597
437,Beloha,-25.1667,45.05,74.642,83,0,1.77,MG,1612062425
438,Pogranichnyy,44.4064,131.3769,3.5600000000000804,80,0,1.64,RU,1612062597
439,Glace Bay,46.1969,-59.957,28.004000000000055,80,90,8.23,CA,1612062597
440,Mount Isa,-20.7333,139.5,102.2,22,88,4.63,AU,1612062598
441,Sakaraha,-22.9,44.5333,72.392,83,0,1.75,MG,1612062598
442,Havelock,34.8791,-76.9013,37.004000000000055,60,1,2.57,US,1612062598
443,Morros,-9.4467,-46.3003,75.00200000000008,77,55,1.31,BR,1612062598
444,Yinchuan,38.4681,106.2731,31.891999999999996,68,0,4.05,CN,1612062599
445,Pitelino,54.5777,41.8145,33.65600000000003,99,100,7.79,RU,1612062599
446,Phalaborwa,-23.943,31.1411,75.2,94,47,2.06,ZA,1612062599
447,Goya,-29.14,-59.2626,73.184,93,67,2.99,AR,1612062599
448,Loandjili,-4.7561,11.8578,79.46600000000001,85,100,1.95,CG,1612062600
449,Beloretsk,53.9631,58.3981,5.0,85,40,1.0,RU,1612062600
450,Ghātsīla,22.6,86.4833,50.0,81,0,1.7,IN,1612062600
451,Taltal,-25.4,-70.4833,65.40800000000002,74,1,2.89,CL,1612062601
452,Lavrentiya,65.5833,-171.0,-13.863999999999983,84,65,3.35,RU,1612062601
453,Aklavik,68.2191,-135.0107,-27.39999999999995,75,100,0.51,CA,1612062601
454,Salinópolis,-0.6136,-47.3561,78.78200000000001,86,100,5.22,BR,1612062601
455,Golyshmanovo,56.3979,68.3728,10.436000000000067,95,99,3.33,RU,1612062602
456,Vanavara,60.34,102.2797,-36.75999999999998,80,25,1.2,RU,1612062472
457,Malanje,-9.5402,16.341,62.978000000000065,98,100,1.87,AO,1612062604
458,Deputatsky,69.3,139.9,-24.59199999999995,89,100,0.89,RU,1612062605
459,Sawākin,19.1059,37.3321,69.00800000000001,69,75,5.61,SD,1612062605
460,Mananjary,-21.2167,48.3333,76.11800000000008,87,18,1.78,MG,1612062478
461,Lusambo,-4.9667,23.45,69.17000000000007,97,100,0.85,CD,1612062606
462,Karratha,-20.7377,116.8463,93.83000000000004,42,90,3.9,AU,1612062606
463,Port Lincoln,-34.7333,135.8667,69.00800000000001,60,3,6.32,AU,1612062606
464,Homa Bay,-0.5273,34.4571,67.49600000000005,74,0,1.28,KE,1612062606
465,Royan,45.6285,-1.0281,50.0,100,90,4.63,FR,1612062607
466,Daru,-9.0763,143.2092,85.02800000000008,66,100,5.51,PG,1612062607
467,Pyrzyce,53.1462,14.8926,28.004000000000055,67,0,5.36,PL,1612062607
468,Rognan,67.0953,15.3878,17.00600000000003,77,100,1.49,NO,1612062607
469,Bac Lieu,9.285,105.7244,83.30000000000001,58,71,6.77,VN,1612062608
470,Cape Girardeau,37.3834,-89.7168,48.2,87,90,5.66,US,1612062377
471,Baft,29.234,56.6057,36.62600000000009,80,0,1.7,IR,1612062608
472,Yuanping,38.7153,112.7575,36.194000000000074,63,0,1.55,CN,1612062311
473,Caxito,-8.5785,13.6643,78.80000000000001,83,75,2.57,AO,1612062609
474,Kavaratti,10.5669,72.642,80.85200000000009,73,3,5.04,IN,1612062609
475,Avera,33.194,-82.5271,46.4,76,40,3.09,US,1612062609
476,Mago,53.2514,140.1822,-0.8679999999999879,89,100,3.96,RU,1612062609
477,Nanortalik,60.1432,-45.2371,27.986000000000068,90,100,4.62,GL,1612062609
478,Kendari,-3.945,122.4989,86.27000000000007,62,100,1.48,ID,1612062610
479,Pangnirtung,66.1451,-65.7125,-6.987999999999943,76,9,1.51,CA,1612062610
480,Cabo San Lucas,22.8909,-109.9124,66.2,82,20,1.03,MX,1612062610
481,Tacna,-18.0056,-70.2483,69.80000000000001,68,75,2.57,PE,1612062611
482,Caranan,13.5167,123.0156,80.34800000000003,68,100,5.57,PH,1612062611
483,Finschhafen,-6.6024,147.8681,87.78200000000001,67,89,7.82,PG,1612062611
484,Kumul,42.8,93.45,26.47400000000001,80,0,2.96,CN,1612062449
485,Newport,51.5877,-2.9984,35.99600000000005,90,78,0.89,GB,1612062611
486,Verkhoyansk,67.5447,133.385,-42.57399999999997,76,62,0.43,RU,1612062612
487,Cockburn Town,21.4612,-71.1419,73.4,56,20,6.17,TC,1612062612
488,Demirci,39.0461,28.6589,31.55,98,54,0.89,TR,1612062551
489,Porto-Novo,6.4965,2.6036,82.4,83,40,4.12,BJ,1612062612
490,Turaif,31.6725,38.6637,39.2,75,0,5.14,SA,1612062613
491,Salisbury,51.0693,-1.7957,37.99400000000007,81,90,3.6,GB,1612062613
492,Peoria,40.7667,-89.7668,35.00600000000003,95,100,2.68,US,1612061900
493,Talcahuano,-36.7167,-73.1167,57.2,100,0,1.54,CL,1612062613
494,Gbarnga,6.9956,-9.4722,70.592,99,51,1.31,LR,1612062613
495,Otjimbingwe,-22.35,16.1333,72.66200000000006,47,86,1.1,NA,1612062614
496,Béjar,40.3864,-5.7634,44.00600000000003,81,0,8.23,ES,1612062614
497,Namatanai,-3.6667,152.4333,84.63200000000002,65,100,5.92,PG,1612062614
498,Departamento de Maldonado,-34.6667,-54.9167,69.00800000000001,77,90,10.29,UY,1612062505
499,Mapimí,25.8167,-103.85,73.4,21,1,0.89,MX,1612062614
500,Kurikka,62.6167,22.4167,14.0,92,90,1.44,FI,1612062615
501,Meulaboh,4.1363,96.1285,82.36400000000003,67,71,0.68,ID,1612062615
502,Puerto Colombia,10.9878,-74.9547,77.0,78,0,7.2,CO,1612062615
503,Fianarantsoa,-21.4333,47.0833,61.736000000000075,96,22,0.85,MG,1612062615
504,Sarkand,45.41,79.9186,28.670000000000062,66,100,1.73,KZ,1612062615
505,Myitkyina,25.3833,97.4,65.2100000000001,60,76,1.49,MM,1612062616
506,Mossamedes,-15.1961,12.1522,72.78800000000004,75,97,2.27,AO,1612062383
507,Almaznyy,48.0448,40.045,33.8,100,75,7.0,RU,1612062618
508,Maragogi,-9.0122,-35.2225,77.30600000000004,83,100,3.29,BR,1612062448
509,Belaya Gora,68.5333,146.4167,-29.253999999999955,85,100,1.04,RU,1612062619
510,Harlingen,26.1906,-97.6961,73.00400000000005,94,75,6.17,US,1612062619
511,Aljezur,37.3191,-8.8033,55.004000000000055,100,99,0.45,PT,1612062619
512,Kawalu,-7.3817,108.2082,86.792,59,97,0.37,ID,1612062619
513,Iralaya,15.0,-83.2333,76.82000000000006,83,69,5.81,HN,1612062619
514,Chumikan,54.7183,135.315,-13.14399999999997,79,0,12.26,RU,1612062620
515,Gumlā,23.05,84.55,57.110000000000085,33,0,1.47,IN,1612062376
516,Voh,-20.9667,164.7,84.74000000000002,55,20,4.03,NC,1612062620
517,Nemuro,43.3236,145.575,24.8,58,20,3.6,JP,1612062484
518,Wajima,37.4,136.9,33.8,75,75,2.06,JP,1612062621
519,Moose Factory,51.2585,-80.6094,-11.199999999999953,92,1,2.06,CA,1612062621
520,Griffith,41.5284,-87.4237,30.2,93,90,7.72,US,1612062622
521,Bella Vista,36.4295,-94.2316,51.998000000000026,87,90,4.12,US,1612062411
522,Zabul Province,32.25,67.25,39.56000000000008,54,15,2.01,AF,1612062622
523,Tamworth,52.634,-1.6959,30.991999999999997,92,95,1.34,GB,1612062622
524,Jacareacanga,-6.2222,-57.7528,72.68000000000004,93,100,0.66,BR,1612062408
525,Chynadiyovo,48.4818,22.8217,32.0,68,99,2.68,UA,1612062623
526,Menongue,-14.6585,17.691,62.45600000000003,95,100,2.17,AO,1612062623
527,Guiyang,26.5833,106.7167,41.0,93,90,3.0,CN,1612062623
528,Waipawa,-41.4122,175.5153,69.00800000000001,72,0,4.12,NZ,1612062623
529,Saint-Joseph,-21.3667,55.6167,78.99800000000002,65,0,2.57,RE,1612062456
530,Dirba,30.0667,75.9833,49.190000000000026,50,0,1.56,IN,1612062624
531,Gimli,50.6336,-96.9907,23.0,93,100,1.54,CA,1612062464
532,Kaka,37.3482,59.6143,49.1,50,100,4.05,TM,1612062624
533,Jumla,29.2747,82.1838,41.82800000000007,37,0,0.49,NP,1612062624
534,Maku,39.2911,44.4521,22.22600000000009,88,71,3.41,IR,1612062625
535,Makakilo City,21.3469,-158.0858,78.80000000000001,57,1,3.6,US,1612062625
536,Siocon,7.7061,122.1353,84.32600000000009,66,39,6.25,PH,1612062625
537,Caucaia,-3.7361,-38.6531,80.6,83,20,5.14,BR,1612062474
538,Kabalo,-6.05,26.9167,69.04400000000007,95,100,0.56,CD,1612062626
539,Kenai,60.5544,-151.2583,17.00600000000003,79,1,2.06,US,1612062626
540,Shakawe,-18.3667,21.85,68.36000000000008,93,100,3.61,BW,1612062626
541,Itinga,-16.6131,-41.7653,70.28600000000007,82,0,1.65,BR,1612062626
542,Presidencia Roque Sáenz Peña,-26.7852,-60.4388,75.99199999999999,75,100,1.79,AR,1612062627
543,Maroantsetra,-15.4333,49.7333,74.51600000000002,87,13,1.46,MG,1612062627
544,Mwingi,-0.9344,38.0601,61.62800000000007,84,98,1.1,KE,1612062627
545,Grindavik,63.8424,-22.4338,21.2,68,75,3.09,IS,1612062627
546,Manzanillo,20.3433,-77.1167,68.91800000000009,79,0,6.67,CU,1612062628
547,Rome,43.2128,-75.4557,12.2,67,90,1.53,US,1612062628
548,Yetkul',54.8221,61.588,8.599999999999998,85,20,1.0,RU,1612062628
549,Tessalit,20.1986,1.0114,60.314000000000036,25,0,4.36,ML,1612062628
550,Mogadishu,2.0371,45.3438,74.33600000000007,84,20,6.89,SO,1612062629
551,Trairi,-3.2778,-39.2689,78.31400000000004,85,100,3.22,BR,1612062629
552,Sørkjosen,69.8,20.9333,20.191999999999993,90,100,0.41,NO,1612062610
553,Nola,40.922,14.5329,55.99400000000007,80,100,1.34,IT,1612062629
554,Sangīn,32.0728,64.8359,52.682000000000016,37,90,2.27,AF,1612062629
555,Mehamn,71.0357,27.8492,24.56600000000001,96,100,8.6,NO,1612062630
556,Aksu,41.1231,80.2644,21.14600000000005,77,32,0.97,CN,1612062630
557,Valparaíso,-33.0393,-71.6273,64.99400000000009,87,87,1.91,CL,1612062525
558,Orsha,54.5153,30.4053,17.041999999999994,97,100,3.18,BY,1612062435
559,Ronneby,56.21,15.276,23.0,100,90,1.54,SE,1612062631
560,Linxia Chengguanzhen,35.6003,103.2064,28.688000000000045,75,99,1.33,CN,1612062631
561,Chapleau,47.8405,-83.4034,3.1999999999999993,78,1,1.03,CA,1612062631
562,Lashio,22.9333,97.75,68.05400000000006,44,11,0.04,MM,1612062489
563,Meadow Lake,34.8014,-106.5436,39.2,48,1,3.6,US,1612062632
564,Novikovo,51.1537,37.8879,34.772000000000034,97,100,9.06,RU,1612062633
565,Dunedin,-45.8742,170.5036,59.0,79,100,9.83,NZ,1612062633
566,Camapuã,-19.5314,-54.0439,73.68800000000005,84,97,1.63,BR,1612062634
567,Cocorit,27.5833,-109.9667,62.25800000000001,49,50,3.13,MX,1612062634
568,Sabzawār,36.2126,57.6819,42.44000000000002,63,0,3.33,IR,1612062634
569,Cazones de Herrera,20.7167,-97.3167,69.15200000000007,94,92,0.36,MX,1612062634
570,Cabo Rojo,18.0866,-67.1457,73.99400000000009,94,3,6.45,PR,1612062635
571,Prainha,-1.8,-53.48,74.10200000000009,91,33,1.6,BR,1612062635
572,Villarrobledo,39.2699,-2.6012,42.998000000000026,94,23,3.58,ES,1612062635
573,San Vicente,-26.6167,-54.1333,69.35,86,4,2.04,AR,1612062635
574,Nabire,-3.3667,135.4833,82.68800000000005,72,95,0.83,ID,1612062415
575,Mahon,39.8885,4.2658,50.0,81,30,3.09,ES,1612062456
576,Beamsville,43.1668,-79.4829,21.991999999999997,73,84,1.03,CA,1612062636
577,Okhotsk,59.3833,143.3,-5.367999999999988,81,0,7.71,RU,1612062636
578,Frontera,26.9333,-101.45,65.49800000000002,65,0,1.65,MX,1612062637
579,Shache,38.4167,77.2406,24.15200000000008,84,65,1.08,CN,1612062637
580,Hernani,43.2662,-1.9762,55.004000000000055,82,90,11.32,ES,1612062637
581,Rio Branco,-9.9747,-67.81,77.0,100,0,0.83,BR,1612062637
582,Shubarkuduk,49.1447,56.4872,14.954000000000054,93,3,4.39,KZ,1612062638
583,Pangai,-19.8,-174.35,84.2,84,75,2.57,TO,1612062638
584,Sulangan,11.1373,123.7228,79.79000000000002,76,99,7.62,PH,1612062639
585,Mahibadhoo,3.7833,72.9667,81.15800000000002,75,1,5.05,MV,1612062639
586,Carbonia,39.1672,8.5222,53.6,87,20,6.69,IT,1612062639
587,Ayacucho,-13.1583,-74.2239,55.23800000000004,67,63,0.6,PE,1612062628
588,Tomioka,36.25,138.9,46.004000000000055,30,0,2.68,JP,1612062639
589,Haverfordwest,51.8017,-4.9691,35.6,80,88,4.12,GB,1612062640
590,Biankouma,7.7391,-7.6138,68.0,80,0,1.03,CI,1612062640
591,Ucluelet,48.9329,-125.5528,44.99600000000005,91,100,2.68,CA,1612062417
592,Chapais,49.7834,-74.8492,-5.799999999999947,84,90,2.06,CA,1612062640
593,Saint-Martin-Boulogne,50.7269,1.6186,35.6,87,90,6.69,FR,1612062640
594,Banda Aceh,5.5577,95.3222,81.82400000000001,70,35,5.8,ID,1612062440
595,Tigil',57.8,158.6667,3.002000000000077,92,99,4.21,RU,1612062641
596,Una,20.8167,71.0333,64.83200000000002,28,0,4.98,IN,1612062641
597,Burē,10.7,37.0667,55.688000000000045,63,8,1.98,ET,1612062641
598,Yuzhne,46.6221,31.1013,33.8,100,0,6.0,UA,1612062642
599,Dondo,-19.6094,34.7431,77.0,94,40,1.03,MZ,1612062642
